     2.11           OBSERVATION DATA    Mixed(MIXED)        RINEX VERSION / TYPE
cnvtToRINEX 3.02.0  convertToRINEX OPR  27-Oct-17 22:22 UTC PGM / RUN BY / DATE 
----------------------------------------------------------- COMMENT             
4324                                                        MARKER NAME         
4324                                                        MARKER NUMBER       
GNSS Observer       Trimble                                 OBSERVER / AGENCY   
4804144324          TRIMBLE R8 GNSS     3.50                REC # / TYPE / VERS 
00000000            TRM60158.00                             ANT # / TYPE        
  -606778.4452 -5460288.3286  3229316.7754                  APPROX POSITION XYZ 
        2.0001        0.0000        0.0000                  ANTENNA: DELTA H/E/N
     1     1     0                                          WAVELENGTH FACT L1/2
     8    C1    C2    C5    L1    L2    L5    P1    P2      # / TYPES OF OBSERV 
  2017    10    27    16    48   35.0000000     GPS         TIME OF FIRST OBS   
  2017    10    27    17    48   30.0000000     GPS         TIME OF LAST OBS    
     0                                                      RCV CLOCK OFFS APPL 
    18                                                      LEAP SECONDS        
    16                                                      # OF SATELLITES     
   G02   153     0     0   120    22     0     0    22      PRN / # OF OBS      
   G05   610   601     0   600   592     0     0     0      PRN / # OF OBS      
   G12   239   226     0   237   225     0     0     0      PRN / # OF OBS      
   G13   510     0     0   473   337     0     0   343      PRN / # OF OBS      
   G15   720   720     0   720   720     0     0     0      PRN / # OF OBS      
   G18   720     0     0   718   718     0     0   720      PRN / # OF OBS      
   G20   720     0     0   720   720     0     0   720      PRN / # OF OBS      
   G21   720     0     0   720   720     0     0   720      PRN / # OF OBS      
   G25   719   719   719   713   713   713     0     0      PRN / # OF OBS      
   G29   720   720     0   720   720     0     0     0      PRN / # OF OBS      
   R03   100     0     0   187    85     0    92    85      PRN / # OF OBS      
   R04   720     0     0  1440   720     0   720   720      PRN / # OF OBS      
   R05   720     0     0  1440   720     0   720   720      PRN / # OF OBS      
   R18   502     0     0   922   389     0   456   393      PRN / # OF OBS      
   R19   719     0     0  1438   719     0   719   719      PRN / # OF OBS      
   R20   544     0     0  1083   541     0   542   541      PRN / # OF OBS      
CARRIER PHASE MEASUREMENTS: PHASE SHIFTS REMOVED            COMMENT             
                                                            END OF HEADER       
 17 10 27 16 48 35.0000000  0 15G02G05G12G13G15G18G20G21G25G29R03R04
                                R05R18R19
  22929318.922 1                                                
                                
  21271389.070 2  21271382.172 8                    369371.73112    261088.94718
                                
  24056180.180 6  24056176.934 8                    535331.40016    401896.25618
                                
  22175040.891 5                                   -153489.10515
                                
  22356282.406 7  22356278.758 9                   -310589.16917   -229518.19819
                                
  24279405.625 4                                   -225060.64214   -157782.11256
                                  24279402.31646
  20369253.820 7                                    -70525.97717    -36853.49658
                                  20369249.62948
  24415801.875 5                                   -133969.49015    -94011.18356
                                  24415796.72346
  23021220.039 6  23021220.668 9  23021218.914 9    338284.60716    252421.97919
    242333.14319                
  20373252.930 7  20373248.922 9                   -125948.46817    -92357.63819
                                
  21020324.453 5                                    377469.94715    278627.01619
                  21020324.832 5  21020329.313 9
  19205751.484 8                                    -34321.43818    -24789.31719
                  19205752.098 7  19205756.473 9
  22109085.727 6                                   -282763.08616   -203965.84417
                  22109084.109 5  22109090.883 7
  20363419.625 5                                     82420.98515
                  20363419.063 4
  20367753.422 7                                   -135943.83217    -97434.55319
                  20367752.391 6  20367756.789 9
 17 10 27 16 48 40.0000000  0 14G05G12G13G15G18G20G21G25G29R03R04R05
                                R18R19
  21274091.102 3  21274082.676 8                    383560.691 3    272145.215 8
                                
  24059918.547 6  24059915.375 8                    554976.202 6    417203.860 8
                                
  22173696.336 5                                   -160540.822 5
                                
  22353806.680 7  22353803.555 9                   -323599.061 7   -239655.784 9
                                
  24277386.891 4                                   -235671.734 4   -166050.52245
                                  24277383.25045
  20369060.484 6                                    -71544.451 6    -37647.11248
                                  20369056.12148
  24414612.563 4                                   -140218.096 4    -98880.20846
                                  24414607.78546
  23024104.781 6  23024104.746 9  23024104.203 9    353446.062 6    264236.078 9
    253654.998 9                
  20372596.750 7  20372593.059 9                   -129396.680 7    -95044.571 9
                                
  21023811.297 5                                    396137.794 5    293146.448 9
                  21023811.324 4  21023816.340 9
  19205537.102 8                                    -35469.016 8    -25681.887 9
                  19205537.480 7  19205541.801 9
  22106001.641 6                                   -299247.583 6   -216787.115 7
                  22106000.609 5  22106007.004 7
  20364878.133 5                                     90208.884 5
                  20364877.570 4
  20366300.859 6                                   -143715.593 6   -103479.271 9
                  20366300.414 6  20366303.758 9
 17 10 27 16 48 45.0000000  0 14G05G12G13G15G18G20G21G25G29R03R04R05
                                R18R19
  21276798.570 3  21276787.957 8                    397777.158 3    283223.004 8
                                
  24063659.953 6  24063656.715 8                    574640.279 6    432526.464 8
                                
  22172360.313 5                                   -167561.018 5     -5249.85356
                                  22172355.46146
  22351336.523 7  22351332.438 9                   -336582.043 7   -249772.394 9
                                
  24275372.836 5                                   -246257.257 5   -174298.89945
                                  24275368.84445
  20368872.484 7                                    -72531.551 7    -38416.27548
                                  20368868.35248
  24413426.664 4                                   -146447.447 4   -103734.20946
                                  24413422.37546
  23026995.305 6  23026995.715 9  23026994.320 9    368634.896 6    276071.559 9
    264997.350 9                
  20371946.641 7  20371943.035 9                   -132812.334 7    -97706.123 9
                                
  21027305.531 5                                    414838.005 5    307691.069 8
                  21027305.207 5  21027309.449 8
  19205331.219 8                                    -36575.044 8    -26542.137 9
                  19205331.246 7  19205335.555 9
  22102923.273 6                                   -315702.133 6   -229585.121 8
                  22102923.301 5  22102929.953 8
  20366342.070 5                                     98029.787 5
                  20366341.625 4
  20364853.531 6                                   -151460.257 6   -109502.889 9
                  20364852.266 6  20364855.570 9
 17 10 27 16 48 50.0000000  0 14G05G12G13G15G18G20G21G25G29R03R04R05
                                R18R19
  21279505.508 4  21279498.813 8                    412020.989 4    294322.082 8
                                
  24067405.438 6  24067402.688 8                    594323.387 6    447863.994 8
                                
  22171030.781 5                                   -174549.807 5    -10695.69445
                                  22171026.48045
  22348870.969 7  22348867.402 9                   -349538.238 7   -259868.140 9
                                
  24273363.086 4                                   -256817.257 4   -182527.51945
                                  24273358.76245
  20368689.992 6                                    -73487.434 6    -39161.09848
                                  20368686.19948
  24412245.148 5                                   -152657.664 5   -108573.34246
                                  24412240.45346
  23029891.234 6  23029891.363 9  23029890.680 9    383851.056 6    287928.287 9
    276360.020 9                
  20371302.820 7  20371298.730 9                   -136195.525 7   -100342.379 9
                                
  21030805.688 6                                    433570.420 6    322260.734 8
                  21030804.422 6  21030808.570 8
  19205132.039 8                                    -37639.759 8    -27370.237 9
                  19205131.477 7  19205136.145 9
  22099850.758 6                                   -332126.834 6   -242359.845 7
                  22099850.434 5  22099856.867 7
  20367812.969 3                                    105883.295 3
                  20367812.645 2
  20363410.734 7                                   -159178.137 7   -115505.668 9
                  20363410.055 6  20363412.531 9
 17 10 27 16 48 55.0000000  0 14G05G12G13G15G18G20G21G25G29R03R04R05
                                R18R19
  21282216.859 1  21282213.582 8                    426291.35011    305442.04418
                                
  24071154.117 6  24071150.887 8                    614025.012 6    463215.927 8
                                
  22169706.930 4                                   -181507.890 4    -16117.63945
                                  22169702.06345
  22346410.398 7  22346407.156 9                   -362468.205 7   -269943.409 9
                                
  24271358.563 4                                   -267352.530 4   -190736.81045
                                  24271354.17245
  20368514.188 7                                    -74412.738 7    -39882.12248
                                  20368509.71948
  24411067.734 5                                   -158849.363 5   -113398.10446
                                  24411062.79346
  23032791.523 6  23032791.855 9  23032790.430 9    399093.813 6    299805.736 9
    287742.585 9                
  20370665.156 7  20370661.016 9                   -139546.948 7   -102953.861 9
                                
  21034309.273 6                                    452334.588 6    336855.091 8
                  21034310.004 5  21034314.242 8
  19204939.906 8                                    -38663.698 8    -28166.636 9
                  19204940.051 7  19204945.242 9
  22096784.797 5                                   -348522.346 5   -255111.891 8
                  22096783.297 5  22096789.941 8
  20369290.969 4                                    113769.093 4     41255.10416
                  20369290.879 3  20369304.133 6
  20361973.023 7                                   -166869.507 7   -121487.869 8
                  20361972.699 6  20361974.426 8
 17 10 27 16 49  0.0000000  0 14G05G12G13G15G18G20G21G25G29R03R04R05
                                R18R19
  21284941.477 2  21284934.203 8                    440588.200 2    316582.265 8
                                
  24074907.406 5  24074903.988 8                    633744.695 5    478581.841 8
                                
  22168387.852 4                                   -188435.788 4    -21515.90245
                                  22168383.46145
  22343955.219 7  22343951.359 9                   -375372.494 7   -279998.700 9
                                
  24269357.969 5                                   -277863.412 5   -198927.06745
                                  24269353.76245
  20368344.711 7                                    -75307.943 7    -40579.68648
                                  20368339.45348
  24409892.805 5                                   -165023.111 5   -118208.72946
                                  24409887.98446
  23035697.406 6  23035697.145 9  23035695.559 9    414362.644 6    311703.569 9
    299144.663 9                
  20370033.422 7  20370029.484 9                   -142867.101 7   -105540.996 9
                                
  21037821.313 5                                    471129.624 5    351473.452 9
                  21037820.988 5  21037825.605 9
  19204756.930 8                                    -39647.423 8    -28931.740 9
                  19204757.777 7  19204761.652 9
  22093723.398 5                                   -364889.203 5   -267841.703 8
                  22093722.250 5  22093728.348 8
  20370775.508 5                                    121686.512 5     47412.871 6
                  20370774.008 4  20370786.738 6
  20360540.586 7                                   -174535.188 7   -127450.036 9
                  20360539.203 6  20360541.906 9
 17 10 27 16 49  5.0000000  0 14G05G12G13G15G18G20G21G25G29R03R04R05
                                R18R19
  21287669.023 4  21287660.168 8                    454910.608 4    327742.583 8
                                
  24078660.906 5  24078660.281 8                    653481.509 5    493961.211 8
                                
  22167073.945 4                                   -195334.121 4    -26891.26945
                                  22167071.34045
  22341504.469 7  22341500.781 9                   -388251.751 7   -290034.496 9
                                
  24267362.391 4                                   -288350.641 4   -207098.96045
                                  24267358.39545
  20368179.523 7                                    -76173.815 7    -41254.39048
                                  20368174.35548
  24408720.016 5                                   -171179.601 5   -123005.98246
                                  24408715.97746
  23038607.742 6  23038607.715 9  23038605.465 9    429656.873 6    323621.169 9
    310565.659 9                
  20369407.016 7  20369403.109 9                   -146156.586 7   -108104.229 9
                                
  21041338.141 6                                    489954.947 6    366115.357 9
                  21041338.402 5  21041342.207 9
  19204581.086 8                                    -40591.679 8    -29666.188 9
                  19204580.523 8  19204584.488 9
  22090666.125 5                                   -381228.141 5   -280549.704 7
                  22090665.680 4  22090671.734 7
  20372263.125 4                                    129634.819 4     53594.988 7
                  20372261.625 3  20372273.926 7
  20359111.836 7                                   -182175.805 7   -133392.749 9
                  20359111.391 6  20359113.594 9
 17 10 27 16 49 10.0000000  0 14G05G12G13G15G18G20G21G25G29R03R04R05
                                R18R19
  21290397.406 5  21290390.148 8                    469258.238 5    338922.588 8
                                
  24082421.039 5  24082420.508 8                    673235.417 5    509353.909 8
                                
  22165768.609 4                                   -202202.969 4    -32243.69845
                                  22165764.55545
  22339058.242 7  22339054.328 9                   -401106.156 7   -300050.898 9
                                
  24265371.086 4                                   -298814.430 4   -215252.54045
                                  24265367.43045
  20368020.375 6                                    -77010.392 6    -41906.27348
                                  20368015.78548
  24407552.492 4                                   -177318.902 4   -127789.88746
                                  24407547.33246
  23041523.242 6  23041522.352 9  23041521.852 9    444976.313 6    335558.338 9
    322005.497 9                
  20368787.422 7  20368782.988 9                   -149415.569 7   -110643.702 9
                                
  21044859.359 5                                    508810.303 5    380780.620 9
                  21044859.504 5  21044864.734 9
  19204411.953 8                                    -41496.498 8    -30369.954 9
                  19204411.273 8  19204415.047 9
  22087615.328 6                                   -397539.177 6   -293236.059 7
                  22087614.766 5  22087619.246 7
  20373758.758 4                                    137613.942 4     59800.939 7
                  20373757.492 3  20373767.574 7
  20357687.477 7                                   -189791.299 7   -139315.890 9
                  20357686.563 6  20357689.574 9
 17 10 27 16 49 15.0000000  0 15G02G05G12G13G15G18G20G21G25G29R03R04
                                R05R18R19
  22944913.906 2                                    249313.28512
                                
  21293132.016 6  21293125.180 8                    483630.598 6    350121.868 8
                                
  24086183.000 4  24086182.348 8                    693005.877 4    524759.490 8
                                
  22164466.930 2                                   -209042.901 2    -37573.47145
                                  22164463.28145
  22336615.891 7  22336612.906 9                   -413936.226 7   -310048.341 9
                                
  24263383.828 3                                   -309255.196 3   -223388.15445
                                  24263381.19145
  20367866.547 6                                    -77818.365 6    -42535.85848
                                  20367861.94548
  24406386.203 4                                   -183441.664 4   -132560.85446
                                  24406381.66846
  23044443.008 6  23044442.211 9  23044442.363 9    460320.400 6    347514.717 9
    333463.693 9                
  20368172.875 7  20368168.348 9                   -152644.639 7   -113159.841 9
                                
  21048387.867 5                                    527695.312 5    395468.935 9
                  21048388.129 5  21048392.715 9
  19204249.750 8                                    -42362.486 8    -31043.511 9
                  19204249.543 8  19204253.477 9
  22084568.211 6                                   -413823.012 6   -305901.274 7
                  22084567.766 5  22084572.766 7
  20375258.883 4                                    145623.285 4     66030.567 7
                  20375257.266 2  20375267.039 7
  20356268.430 7                                   -197382.541 7   -145220.143 9
                  20356266.930 6  20356271.813 9
 17 10 27 16 49 20.0000000  0 15G02G05G12G13G15G18G20G21G25G29R03R04
                                R05R18R19
  22946880.383 1                                    259649.619 1
                                
  21295871.195 5  21295864.539 8                    498027.099 5    361339.806 8
                                
  24089947.313 4  24089947.227 8                    712792.083 4    540177.308 8
                                
  22163170.813 1                                   -215854.769 1    -42881.39145
                                  22163166.80145
  22334179.164 7  22334175.793 9                   -426742.570 7   -320027.332 9
                                
  24261402.617 3                                   -319673.836 3   -231506.67346
                                  24261398.32046
  20367718.938 7                                    -78598.354 7    -43143.64248
                                  20367713.14148
  24405224.148 3                                   -189548.536 3   -137319.39345
                                  24405219.96145
  23047367.500 6  23047366.734 9  23047366.352 9    475688.447 6    359489.879 9
    344939.838 9                
  20367564.047 7  20367559.594 9                   -155844.442 7   -115653.225 9
                                
  21051921.766 6                                    546609.177 6    410179.765 8
                  21051921.676 5  21051925.711 8
  19204095.906 8                                    -43190.521 8    -31687.503 9
                  19204095.582 7  19204099.324 9
  22081527.703 5                                   -430080.148 5   -318545.696 7
                  22081526.672 4  22081531.422 7
  20376764.313 4                                    153662.178 4     72282.966 7
                  20376764.574 3  20376774.250 7
  20354854.086 6                                   -204949.890 6   -151105.926 9
                  20354852.234 6  20354856.184 9
 17 10 27 16 49 25.0000000  0 15G02G05G12G13G15G18G20G21G25G29R03R04
                                R05R18R19
  22948849.570 1                                                
                                
  21298613.945 5  21298608.898 8                    512446.941 5    372576.078 8
                                
  24093717.398 3  24093715.586 8                    732593.472 3    555606.832 8
                                
  22161880.484 1                                   -222638.922 1    -48167.79745
                                  22161876.50845
  22331746.898 7  22331743.629 9                   -439525.915 7   -329988.366 9
                                
  24259424.266 3                                   -330070.772 3   -239608.15745
                                  24259420.15645
  20367575.227 7                                    -79350.956 7    -43730.08148
                                  20367569.98448
  24404064.633 3                                   -195640.075 3   -142066.05945
                                  24404060.98045
  23050296.703 6  23050296.137 9  23050295.805 9    491079.773 6    371483.111 9
    356433.349 9                
  20366960.492 7  20366956.066 9                   -159015.540 7   -118124.205 9
                                
  21055460.609 6                                    565551.273 6    424912.485 8
                  21055459.695 5  21055464.539 8
  19203948.305 8                                    -43981.132 8    -32302.422 9
                  19203947.980 7  19203951.824 9
  22078491.508 5                                   -446311.419 5   -331170.029 7
                  22078491.535 5  22078495.164 7
  20378275.930 4                                    161729.882 4     78557.820 7
                  20378275.723 3  20378287.301 7
  20353442.414 6                                   -212494.305 6   -156973.761 9
                  20353441.969 6  20353446.109 9
 17 10 27 16 49 30.0000000  0 15G02G05G12G13G15G18G20G21G25G29R03R04
                                R05R18R19
  22950824.203 2                                                
                                
  21301363.695 3  21301357.254 9                    526890.104 3    383830.479 9
                                
  24097489.359 5  24097486.449 8                    752409.887 5    571048.148 8
                                
  22160594.203 1                                   -229395.725 1    -53432.69545
                                  22160590.19545
  22329318.375 7  22329314.988 9                   -452286.284 7   -339931.492 9
                                
  24257449.203 4                                   -340446.266 4   -247692.90645
                                  24257446.01245
  20367437.070 7                                    -80076.377 7    -44295.33748
                                  20367431.89848
  24402909.086 4                                   -201716.502 4   -146800.93445
                                  24402904.73045
  23053229.195 6  23053229.563 9  23053228.574 9    506494.244 6    383494.398 9
    367944.160 9                
  20366362.594 7  20366357.840 9                   -162158.168 7   -120572.998 9
                                
  21059004.750 5                                    584521.265 5    439666.933 8
                  21059003.250 5  21059009.012 8
  19203807.148 8                                    -44734.349 8    -32888.231 9
                  19203807.762 7  19203811.211 9
  22075460.031 6                                   -462516.778 6   -343774.205 7
                  22075459.586 5  22075463.117 7
  20379792.289 3                                    169826.321 3     84855.019 7
                  20379792.082 2  20379804.109 7
  20352036.500 6                                   -220015.557 6   -162823.617 8
                  20352036.176 5  20352040.270 8
 17 10 27 16 49 35.0000000  0 15G02G05G12G13G15G18G20G21G25G29R03R04
                                R05R18R19
  22952802.094 2                                    290773.01712
                                
  21304115.234 3  21304110.121 9                    541356.043 3    395102.625 9
                                
  24101262.688 5  24101260.512 8                    772240.736 5    586500.779 8
                                
  22159314.242 2                                   -236125.572 2    -58676.81445
                                  22159309.53945
  22326894.242 7  22326891.090 9                   -465024.238 7   -349857.159 9
                                
  24255478.734 5                                   -350800.772 5   -255761.34146
                                  24255476.03946
  20367304.148 7                                    -80775.104 7    -44839.79048
                                  20367299.10248
  24401754.992 3                                   -207778.388 3   -151524.51045
                                  24401750.90645
  23056166.648 6  23056166.828 9  23056165.637 9    521931.326 6    395523.275 9
    379471.836 9                
  20365770.156 7  20365765.590 9                   -165272.781 7   -122999.975 9
                                
  21062552.977 6                                    603518.890 6    454442.858 8
                  21062551.711 5  21062557.074 8
  19203674.297 8                                    -45450.799 8    -33445.472 9
                  19203673.852 7  19203677.211 9
  22072434.461 6                                   -478696.890 6   -356358.752 7
                  22072432.727 5  22072436.898 7
  20381313.383 3                                    177950.992 3     91174.255 7
                  20381312.469 3  20381324.793 7
  20350634.461 6                                   -227514.517 6   -168656.144 9
                  20350634.488 6  20350638.613 9
 17 10 27 16 49 40.0000000  0 15G02G05G12G13G15G18G20G21G25G29R03R04
                                R05R18R19
  22954784.961 3                                    301184.664 3
                                
  21306872.852 2  21306866.871 8                    555844.507 2    406392.417 8
                                
  24105038.250 5  24105036.000 8                    792085.872 5    601964.584 8
                                
  22158039.453 2                                   -242828.520 2    -63899.91145
                                  22158033.60945
  22324475.203 7  22324471.523 9                   -477739.961 7   -359765.481 9
                                
  24253512.641 5                                   -361134.414 5   -263813.52945
                                  24253509.15645
  20367175.836 7                                    -81447.328 7    -45363.59248
                                  20367170.85248
  24400605.180 4                                   -213825.791 4   -156236.78145
                                  24400599.47345
  23059108.352 6  23059108.945 9  23059108.039 9    537390.859 6    407569.641 9
    391016.290 9                
  20365182.695 7  20365178.336 9                   -168359.590 7   -125405.271 9
                                
  21066106.461 5                                    622543.531 5    469239.826 8
                  21066105.898 5  21066111.527 8
  19203546.945 8                                    -46130.635 8    -33974.225 9
                  19203547.090 7  19203550.797 9
  22069410.789 6                                   -494851.795 6   -368923.647 7
                  22069411.051 5  22069415.898 7
  20382841.680 4                                    186103.758 4     97515.277 7
                  20382841.355 3  20382851.160 7
  20349238.063 6                                   -234991.110 6   -174471.259 9
                  20349236.328 6  20349241.141 9
 17 10 27 16 49 45.0000000  0 15G02G05G12G13G15G18G20G21G25G29R03R04
                                R05R18R19
  22956768.359 2                                    311613.519 2
                                
  21309632.680 1  21309628.426 8                    570354.464 1    417698.859 8
                                
  24108817.211 5  24108814.648 8                    811944.163 5    617438.540 8
                                
  22156769.320 2                                   -249505.880 2    -69103.04345
                                  22156763.21945
  22322059.008 7  22322055.316 9                   -490434.561 7   -369657.382 9
                                
  24251549.375 4                                   -371448.424 4   -271850.43045
                                  24251545.79345
  20367052.820 7                                    -82094.191 7    -45867.62748
                                  20367048.18848
  24399456.523 5                                   -219859.948 5   -160938.72745
                                  24399451.48045
  23062054.680 6  23062054.840 9  23062053.039 9    552871.620 6    419632.573 9
    402576.588 9                
  20364600.500 7  20364595.719 9                   -171419.771 7   -127789.833 9
                                
  21069665.063 5                                    641594.340 5    484057.119 8
                  21069664.500 5  21069669.859 8
  19203426.953 8                                    -46775.137 8    -34475.498 9
                  19203427.098 7  19203430.559 9
  22066392.813 5                                   -510982.599 5   -381469.802 7
                  22066392.367 5  22066397.676 7
  20384374.055 3                                    194283.473 3    103877.242 7
                  20384373.848 2  20384383.285 7
  20347843.695 6                                   -242446.625 6   -180269.997 9
                  20347842.781 6  20347847.586 9
 17 10 27 16 49 50.0000000  0 15G02G05G12G13G15G18G20G21G25G29R03R04
                                R05R18R19
  22958756.008 2                                    322059.695 2
                                
  21312400.586 5  21312393.777 9                    584885.821 5    429021.902 9
                                
  24112599.227 4  24112596.930 8                    831815.609 4    632922.695 8
                                
  22155502.422 4                                   -256157.495 4    -74286.08945
                                  22155497.89545
  22319648.047 7  22319643.797 9                   -503107.964 7   -379532.785 9
                                
  24249591.531 5                                   -381742.744 5   -279871.94046
                                  24249586.90646
  20366935.086 7                                    -82715.678 7    -46351.91148
                                  20366929.86348
  24398308.914 3                                   -225880.801 3   -165630.21946
                                  24398306.03546
  23065004.055 6  23065004.215 9  23065003.234 9    568373.648 6    431712.062 9
    414152.767 9                
  20364022.953 7  20364018.188 9                   -174453.180 7   -130153.531 9
                                
  21073229.313 5                                    660671.252 5    498894.676 8
                  21073229.574 5  21073234.461 8
  19203313.258 8                                    -47384.045 8    -34949.109 9
                  19203312.461 7  19203316.023 9
  22063379.938 6                                   -527089.511 6   -393997.396 7
                  22063379.848 5  22063385.242 7
  20385912.234 4                                    202489.972 4    110260.114 7
                  20385913.082 3  20385920.172 7
  20346454.109 6                                   -249880.870 6   -186052.195 9
                  20346453.078 6  20346458.164 9
 17 10 27 16 49 55.0000000  0 15G02G05G12G13G15G18G20G21G25G29R03R04
                                R05R18R19
  22960746.797 2                                    332523.307 2
                                
  21315167.898 2  21315163.203 8                    599438.643 2    440361.820 8
                                
  24116383.492 5  24116380.906 8                    851700.295 5    648417.284 8
                                
  22154241.805 4                                   -262783.264 4    -79448.98945
                                  22154236.65645
  22317239.961 7  22317236.297 9                   -515760.064 7   -389391.561 9
                                
  24247635.531 5                                   -392017.185 5   -287877.98145
                                  24247631.97745
  20366821.414 7                                    -83311.623 7    -46816.27948
                                  20366816.05948
  24397166.992 4                                   -231888.156 4   -170311.33045
                                  24397163.07845
  23067958.781 6  23067958.242 9  23067956.809 9    583897.101 6    443808.269 9
    425744.960 9                
  20363450.883 7  20363445.535 9                   -177459.657 7   -132496.236 9
                                
  21076797.695 5                                    679774.214 5    513752.560 8
                  21076797.133 5  21076802.332 8
  19203206.273 8                                    -47957.338 8    -35394.984 9
                  19203205.828 7  19203210.137 9
  22060371.750 6                                   -543172.210 6   -406506.146 8
                  22060371.660 5  22060375.746 8
  20387455.234 3                                    210723.627 3    116664.077 7
                  20387454.320 2  20387461.891 7
  20345068.547 6                                   -257293.730 6   -191817.749 9
                  20345067.398 6  20345071.750 9
 17 10 27 16 50  0.0000000  0 15G02G05G12G13G15G18G20G21G25G29R03R04
                                R05R18R19
  22962741.266 1                                    343003.197 1
                                
  21317940.258 2  21317936.305 9                    614011.938 2    451717.625 9
                                
  24120169.977 5  24120167.203 8                    871597.058 5    663921.229 8
                                
  22152985.172 4                                   -269384.349 4    -84592.68845
                                  22152980.78545
  22314836.516 7  22314833.152 9                   -528392.049 7   -399234.662 9
                                
  24245683.719 5                                   -402273.009 5   -295869.51645
                                  24245680.25445
  20366712.969 7                                    -83883.280 7    -47261.72948
                                  20366707.53948
  24396025.898 5                                   -237883.340 5   -174982.85945
                                  24396022.10545
  23070915.805 6  23070916.254 9  23070914.594 9    599440.713 6    455920.167 9
    437352.203 9                
  20362883.648 7  20362878.758 9                   -180440.466 7   -134818.950 9
                                
  21080371.297 5                                    698902.329 5    528629.963 8
                  21080369.914 5  21080375.820 8
  19203105.242 8                                    -48496.355 8    -35814.212 9
                  19203105.738 7  19203109.102 9
  22057367.289 6                                   -559231.815 6   -418996.947 7
                  22057366.375 5  22057371.699 7
  20389001.180 3                                    218983.071 3    123088.077 7
                  20389000.973 1  20389008.930 7
  20343686.500 7                                   -264686.482 7   -197567.672 9
                  20343685.820 6  20343690.066 9
 17 10 27 16 50  5.0000000  0 15G02G05G12G13G15G18G20G21G25G29R03R04
                                R05R18R19
  22964740.680 2                                    353499.631 2
                                
  21320716.234 1  21320713.684 9                    628605.856 1    463089.521 9
                                
  24123957.484 5  24123955.250 8                    891506.152 5    679434.836 8
                                
  22151734.633 4                                   -275960.465 4    -89716.91045
                                  22151729.15645
  22312436.359 7  22312432.898 9                   -541003.536 7   -409061.793 9
                                
  24243735.898 5                                   -412509.865 5   -303846.33146
                                  24243732.41446
  20366608.750 7                                    -84430.306 7    -47687.98048
                                  20366603.07848
  24394888.383 4                                   -243866.033 4   -179644.68845
                                  24394883.78545
  23073877.898 6  23073877.418 9  23073875.648 9    615004.842 6    468048.031 9
    448974.747 9                
  20362321.508 7  20362316.543 9                   -183395.198 7   -137121.339 9
                                
  21083949.164 5                                    718055.574 5    543526.932 9
                  21083949.543 5  21083953.938 9
  19203011.961 8                                    -49000.701 8    -36206.493 9
                  19203011.871 8  19203015.172 9
  22054367.781 6                                   -575268.117 6   -431469.609 7
                  22054367.691 6  22054371.336 7
  20390555.633 4                                    227268.874 4    129532.543 7
                  20390554.367 3  20390560.566 7
  20342308.992 7                                   -272058.805 7   -203301.716 9
                  20342307.258 6  20342311.441 9
 17 10 27 16 50 10.0000000  0 15G02G05G12G13G15G18G20G21G25G29R03R04
                                R05R18R19
  22966740.641 3                                    364011.870 3
                                
  21323501.281 5  21323494.012 8                    643219.620 5    474476.857 8
                                
  24127747.219 4  24127746.676 9                    911426.776 4    694957.396 9
                                
  22150486.430 4                                   -282512.350 4    -94822.30545
                                  22150483.09045
  22310040.336 7  22310036.789 9                   -553595.294 7   -418873.554 9
                                
  24241789.398 4                                   -422728.549 4   -311808.90946
                                  24241787.19946
  20366508.625 7                                    -84953.444 7    -48095.62148
                                  20366503.59448
  24393751.836 5                                   -249836.880 5   -184297.33545
                                  24393747.12945
  23076843.641 6  23076843.648 9  23076842.242 9    630588.672 6    480191.265 9
    460612.029 9                
  20361764.031 7  20361759.781 9                   -186324.695 7   -139404.060 9
                                
  21087532.109 6                                    737233.362 6    558442.944 9
                  21087530.844 5  21087536.855 9
  19202922.281 8                                    -49471.129 8    -36572.404 9
                  19202922.426 8  19202926.305 9
  22051370.289 6                                   -591281.838 6   -443924.771 7
                  22051370.902 5  22051375.445 7
  20392112.555 5                                    235579.905 5    135996.760 7
                  20392110.938 3  20392117.922 7
  20340934.828 7                                   -279411.391 7   -209020.384 9
                  20340933.328 6  20340937.918 9
 17 10 27 16 50 15.0000000  0 15G02G05G12G13G15G18G20G21G25G29R03R04
                                R05R18R19
  22968744.031 2                                    374539.469 2
                                
  21326282.125 5  21326279.688 9                    657852.764 5    485879.366 9
                                
  24131539.195 5  24131538.762 8                    931358.656 5    710488.738 8
                                
  22149244.289 5                                   -289040.425 5    -99909.13146
                                  22149240.77046
  22307647.297 7  22307644.973 9                   -566167.769 7   -428670.256 9
                                
  24239850.313 5                                   -432929.396 5   -319757.67145
                                  24239846.64545
  20366414.367 7                                    -85453.159 7    -48484.98448
                                  20366409.27348
  24392618.922 5                                   -255796.431 5   -188941.16946
                                  24392613.35246
  23079812.695 6  23079812.336 9  23079811.500 9    646191.739 6    492349.444 9
    472263.610 9                
  20361211.195 7  20361206.770 9                   -189229.383 7   -141667.452 9
                                
  21091119.453 4                                    756435.104 4    573377.657 8
                  21091117.250 3  21091123.824 8
  19202841.055 8                                    -49907.903 8    -36912.095 9
                  19202840.965 8  19202845.063 9
  22048379.688 5                                   -607273.300 5   -456362.511 7
                  22048378.188 4  22048384.367 7
  20393673.359 6                                    243916.015 6    142480.334 7
                  20393672.211 5  20393680.977 7
  20339562.266 6                                   -286744.785 6   -214724.150 9
                  20339561.469 6  20339567.160 9
 17 10 27 16 50 20.0000000  0 15G02G05G12G13G15G18G20G21G25G29R03R04
                                R05R18R19
  22970747.227 1                                    385082.188 1
                                
  21329072.398 6  21329066.973 9                    672505.244 6    497296.993 9
                                
  24135334.422 6  24135334.332 8                    951301.461 6    726028.557 8
                                
  22148006.930 5                                   -295544.850 5   -104977.52546
                                  22148003.09046
  22305258.617 7  22305255.582 9                   -578721.132 7   -438452.050 9
                                
  24237911.938 5                                   -443112.691 5   -327692.72446
                                  24237908.93046
  20366322.703 7                                    -85929.636 7    -48856.27348
                                  20366317.97748
  24391487.141 5                                   -261744.796 5   -193576.28746
                                  24391481.59846
  23082785.422 6  23082785.563 9  23082784.289 9    661813.904 6    504522.545 9
    483929.507 9                
  20360663.180 7  20360659.328 9                   -192109.371 7   -143911.600 9
                                
  21094711.039 4                                    775660.702 4    588330.863 8
                  21094709.422 4  21094714.367 8
  19202766.023 8                                    -50311.479 8    -37225.999 9
                  19202766.637 7  19202770.875 9
  22045392.117 5                                   -623242.929 5   -468783.341 7
                  22045390.617 4  22045398.098 7
  20395239.273 5                                    252276.860 5    148983.286 7
                  20395238.949 4  20395248.961 7
  20338195.492 6                                   -294058.889 6   -220412.910 9
                  20338193.758 6  20338199.262 9
 17 10 27 16 50 25.0000000  0 15G02G05G12G13G15G18G20G21G25G29R03R04
                                R05R18R19
  22972757.063 1                                    395639.889 1
                                
  21331863.742 6  21331858.934 9                    687176.642 6    508729.247 9
                                
  24139131.836 5  24139130.449 8                    971254.883 5    741576.731 8
                                
  22146771.516 4                                   -302026.001 4   -110027.80146
                                  22146769.73846
  22302873.156 7  22302870.754 9                   -591255.675 7   -448219.211 9
                                
  24235977.555 5                                   -453278.645 5   -335614.19446
                                  24235974.16846
  20366236.539 6                                    -86383.208 6    -49209.70248
                                  20366232.23848
  24390357.016 5                                   -267682.362 5   -198202.88846
                                  24390351.17246
  23085761.070 6  23085762.098 9  23085760.160 9    677454.754 6    516710.236 9
    495609.369 9                
  20360120.000 7  20360115.551 9                   -194965.040 7   -146136.793 9
                                
  21098306.414 6                                    794909.957 6    603302.511 8
                  21098306.090 5  21098310.672 8
  19202696.930 8                                    -50682.032 8    -37514.192 9
                  19202697.191 7  19202700.844 9
  22042408.438 5                                   -639190.730 5   -481187.182 7
                  22042407.406 4  22042413.750 7
  20396809.742 4                                    260662.180 4    155505.177 7
                  20396808.242 2  20396818.777 7
  20336832.094 6                                   -301354.321 6   -226087.120 9
                  20336830.008 6  20336835.656 9
 17 10 27 16 50 30.0000000  0 15G02G05G12G13G15G18G20G21G25G29R03R04
                                R05R18R19
  22974768.781 1                                                
                                
  21334659.016 6  21334654.172 9                    701866.741 6    520176.022 9
                                
  24142932.117 6  24142929.688 9                    991218.679 6    757132.908 9
                                
  22145544.383 5                                   -308483.845 5   -115059.88246
                                  22145541.14146
  22300491.578 6  22300489.180 9                   -603771.440 6   -457971.804 9
                                
  24234045.781 6                                   -463427.518 6   -343522.37746
                                  24234043.16046
  20366155.086 6                                    -86813.975 6    -49545.35448
                                  20366150.43448
  24389229.320 5                                   -273609.212 5   -202821.18146
                                  24389223.91446
  23088741.813 6  23088741.934 9  23088740.191 9    693114.182 6    528912.349 9
    507303.057 9                
  20359581.078 7  20359576.219 9                   -197796.481 7   -148343.130 9
                                
  21101907.461 6                                    814182.099 6    618291.940 8
                  21101907.723 6  21101910.996 8
  19202632.852 8                                    -51019.868 8    -37776.993 9
                  19202633.230 7  19202637.246 9
  22039428.125 5                                   -655117.180 5   -493574.399 7
                  22039428.035 4  22039434.422 7
  20398386.109 4                                    269071.917 4    162046.173 7
                  20398383.906 2  20398394.215 7
  20335470.781 6                                   -308631.076 6   -231746.854 9
                  20335470.457 6  20335475.285 9
 17 10 27 16 50 35.0000000  0 15G02G05G12G13G15G18G20G21G25G29R03R04
                                R05R18R19
  22976783.852 1                                                
                                
  21337457.133 6  21337453.133 9                    716575.617 6    531637.499 9
                                
  24146731.250 5  24146731.750 9                   1011192.933 5    772697.267 9
                                
  22144319.148 5                                   -314918.563 5   -120073.96146
                                  22144316.26646
  22298114.109 7  22298109.801 9                   -616268.535 7   -467709.816 9
                                
  24232117.805 6                                   -473559.259 6   -351417.26646
                                  24232115.27046
  20366077.320 6                                    -87222.069 6    -49863.34248
                                  20366072.64548
  24388103.000 5                                   -279525.357 5   -207431.21146
                                  24388097.48446
  23091724.852 6  23091725.957 9  23091724.711 9    708792.146 6    541128.948 9
    519010.606 9                
  20359046.328 7  20359042.059 9                   -200603.781 7   -150530.602 9
                                
  21105511.398 5                                    833477.600 5    633299.559 8
                  21105510.484 4  21105515.578 8
  19202575.953 8                                    -51324.900 8    -38014.210 9
                  19202576.566 7  19202580.199 9
  22036452.602 5                                   -671022.025 5   -505944.820 7
                  22036451.688 4  22036459.035 7
  20399967.164 5                                    277505.97915
                                
  20334114.445 6                                   -315889.263 6   -237392.066 9
                  20334113.766 6  20334118.664 9
 17 10 27 16 50 40.0000000  0 15G02G05G12G13G15G18G20G21G25G29R03R04
                                R05R18R19
  22978801.781 1                                    427400.60411
                                
  21340260.461 4  21340255.898 9                    731302.699 4    543113.151 9
                                
  24150534.758 6  24150534.734 9                   1031177.026 6    788269.248 9
                                
  22143098.609 2                                   -321330.726 2   -125070.32045
                                  22143096.13745
  22295739.406 7  22295735.711 9                   -628747.543 7   -477433.720 9
                                
  24230193.406 5                                   -483674.441 5   -359299.24945
                                  24230190.26645
  20366004.039 7                                    -87607.970 7    -50164.05848
                                  20365998.63348
  24386978.945 5                                   -285431.449 5   -212033.31846
                                  24386974.02046
  23094711.352 6  23094712.117 9  23094710.434 9    724487.979 6    553359.499 9
    530731.534 9                
  20358517.078 7  20358513.160 9                   -203387.396 7   -152699.678 9
                                
  21109119.594 5                                    852795.778 5    648324.842 8
                  21109119.504 5  21109123.859 8
  19202525.328 8                                    -51597.717 8    -38226.362 9
                  19202524.883 7  19202529.602 9
  22033483.563 6                                   -686905.844 6   -518298.891 7
                  22033483.117 5  22033488.633 7
  20401549.930 3                                    285963.755 3
                                
  20332761.461 6                                   -323129.174 6   -243023.093 9
                  20332760.430 5  20332765.641 9
 17 10 27 16 50 45.0000000  0 15G02G05G12G13G15G18G20G21G25G29R03R04
                                R05R18R19
  22980820.352 1                                    438015.545 1
                                
  21343064.773 2  21343061.918 9                    746047.354 2    554602.502 9
                                
  24154339.867 6  24154339.168 9                   1051170.496 6    803848.533 9
                                
  22141882.789 3                                   -327720.499 3   -130049.41845
                                  22141880.16045
  22293368.188 7  22293364.258 9                   -641208.854 7   -487143.831 9
                                
  24228271.305 6                                   -493773.525 6   -367168.66545
                                  24228268.13345
  20365934.742 7                                    -87972.136 7    -50447.82448
                                  20365929.52748
  24385856.695 5                                   -291327.849 5   -216627.89546
                                  24385852.14846
  23097701.867 6  23097702.348 9  23097700.281 9    740201.379 6    565603.707 9
    542465.574 9                
  20357991.813 7  20357987.586 9                   -206147.781 7   -154850.626 9
                                
  21112731.313 5                                    872136.123 5    663367.357 8
                  21112732.277 4  21112737.004 8
  19202479.086 8                                    -51838.712 8    -38413.804 9
                  19202479.699 7  19202485.070 9
  22030516.313 6                                   -702769.138 6   -530637.014 8
                  22030514.930 5  22030520.500 8
  20403138.156 2                                    294444.769 2
                  20403137.711 1
  20331410.656 6                                   -330351.569 6   -248640.484 9
                  20331409.859 6  20331414.992 9
 17 10 27 16 50 50.0000000  0 15G02G05G12G13G15G18G20G21G25G29R03R04
                                R05R18R19
  22982842.672 1                                    448643.74511
                                
  21345872.539 1  21345871.441 9                    760809.379 1    566105.333 9
                                
  24158146.109 6  24158146.008 9                   1071172.846 6    819434.780 9
                                
  22140669.188 1                                   -334088.415 1   -135011.39545
                                  22140668.23045
  22290999.820 7  22290996.832 9                   -653652.856 7   -496840.455 9
                                
  24226352.094 5                                   -503856.868 5   -375025.78646
                                  24226348.80546
  20365869.172 7                                    -88315.001 7    -50714.97748
                                  20365864.41048
  24384735.703 5                                   -297214.972 5   -221215.23046
                                  24384731.94946
  23100694.102 5  23100695.473 9  23100693.656 9    755931.852 5    577861.198 9
    554212.332 9                
  20357470.773 7  20357466.520 9                   -208885.404 7   -156983.851 9
                                
  21116349.258 5                                    891498.283 5    678426.794 8
                  21116349.051 4  21116353.508 8
  19202441.102 8                                    -52048.377 8    -38576.879 9
                  19202441.129 7  19202444.977 9
  22027550.648 6                                   -718612.270 6   -542959.445 8
                  22027550.441 5  22027557.086 8
  20404729.938 3                                    302948.681 3    169423.65817
                  20404731.020 2  20404740.047 7
  20330064.477 6                                   -337556.642 6   -254244.435 9
                  20330063.680 6  20330067.484 9
 17 10 27 16 50 55.0000000  0 15G02G05G12G13G15G18G20G21G25G29R03R04
                                R05R18R19
  22984870.523 1                                    459285.108 1
                                
  21348686.969 2  21348683.652 9                    775588.552 2    577621.520 9
                                
  24161954.063 6  24161953.598 9                   1091184.046 6    835027.909 9
                                
  22139459.328 1                                   -340434.703 1   -139956.60445
                                  22139461.06645
  22288635.328 7  22288631.234 9                   -666079.624 7   -506523.646 9
                                
  24224436.172 5                                   -513924.630 5   -382870.80646
                                  24224432.72746
  20365807.523 7                                    -88636.654 7    -50965.61048
                                  20365802.57448
  24383617.688 5                                   -303092.948 5   -225795.46346
                                  24383613.10546
  23103691.805 5  23103692.496 9  23103690.703 9    771679.295 5    590131.907 9
    565971.767 9                
  20356953.648 7  20356950.195 9                   -211600.266 7   -159099.319 9
                                
  21119970.750 5                                    910882.005 5    693502.993 8
                  21119970.543 4  21119974.602 8
  19202407.367 8                                    -52226.728 8    -38715.577 9
                  19202407.746 7  19202411.203 9
  22024589.555 5                                   -734435.481 5   -555266.372 8
                  22024589.699 4  22024597.680 8
  20406329.695 4                                    311475.436 4    176055.596 7
                  20406329.605 3  20406336.895 7
  20328719.875 6                                   -344744.585 6   -259835.064 9
                  20328720.020 6  20328723.813 9
 17 10 27 16 51  0.0000000  0 15G02G05G12G13G15G18G20G21G25G29R03R04
                                R05R18R19
  22986897.813 1                                    469939.596 1
                                
  21351502.016 1  21351499.184 9                    790384.570 1    589150.915 9
                                
  24165764.063 5  24165763.461 9                   1111203.897 5    850627.746 9
                                
  22138256.188 1                                                
                                  22138257.22345
  22286273.742 7  22286270.355 9                   -678489.377 7   -516193.577 9
                                
